City_ID,City,Lat,Lng,Max Temp,Humidity,Cloudiness,Wind Speed,Country,Date
0,adamstown,-25.066,-130.1015,296.16,85,100,8.28,PN,1699931139
1,iqaluit,63.7506,-68.5145,255.2,64,0,2.57,CA,1699931139
2,avarua,-21.2078,-159.775,297.18,60,20,4.12,CK,1699931243
3,constantia,44.1833,28.65,277.53,58,54,4.04,RO,1699931045
4,port-aux-francais,-49.35,70.2167,279.68,97,100,15.17,TF,1699931160
5,utrik,11.2278,169.8474,301.24,81,100,7.99,MH,1699931244
6,ayden,35.4727,-77.4155,278.31,100,0,0.0,US,1699931244
7,homer,59.6425,-151.5483,275.24,84,43,8.54,US,1699930988
8,marion,39.7684,-86.1555,282.88,60,0,2.57,US,1699931177
9,kamyshin,50.0983,45.416,279.2,78,100,1.97,RU,1699931245
10,edinburgh of the seven seas,-37.0676,-12.3116,286.61,77,12,11.23,SH,1699931144
11,tiksi,71.6872,128.8694,257.67,95,100,2.07,RU,1699931217
12,changyon,38.2508,125.0961,282.88,55,89,3.18,KP,1699931245
13,hammerfest,70.6634,23.6821,272.4,93,100,0.0,NO,1699931245
14,bhimunipatnam,17.8833,83.4333,300.88,70,100,4.21,IN,1699931236
15,blackmans bay,-43.0167,147.3167,290.11,49,13,5.39,AU,1699931167
16,bethel,41.3712,-73.414,277.56,84,0,2.06,US,1699931188
17,kone,-21.0595,164.8658,301.38,42,5,4.06,NC,1699931143
18,tanjung pandan,-2.75,107.65,305.3,57,49,1.31,ID,1699931246
19,san antonio de pale,-1.4014,5.6325,299.27,80,22,3.55,GQ,1699931246
20,grytviken,-54.2811,-36.5092,275.04,98,100,3.21,GS,1699931173
21,georgetown,5.4112,100.3354,303.11,83,20,2.57,MY,1699931158
22,lianhe,47.1333,129.2667,271.58,69,20,0.68,CN,1699931132
23,cova figueira,14.8905,-24.2934,297.11,66,100,4.5,CV,1699931247
24,kirakira,-10.4544,161.9205,300.17,81,84,2.31,SB,1699931247
25,coquimbo,-29.9533,-71.3436,287.76,76,1,1.45,CL,1699931236
26,sabang,5.8933,95.3214,299.96,83,100,5.83,ID,1699931248
27,malakal,9.5334,31.6605,298.36,74,69,1.71,SS,1699931248
28,waitangi,-43.9535,-176.5597,286.46,89,4,9.38,NZ,1699931222
29,alpena,45.0617,-83.4327,279.33,70,100,4.12,US,1699931248
30,chonchi,-42.6128,-73.8092,277.71,91,79,1.48,CL,1699931202
31,uturoa,-16.7333,-151.4333,300.23,83,66,8.06,PF,1699931229
32,singaraja,-8.112,115.0882,303.35,69,42,1.41,ID,1699931249
33,berezovyy,51.6667,135.7,268.66,48,0,1.01,RU,1699931249
34,chililabombwe,-12.3648,27.8229,289.53,91,95,1.49,ZM,1699931249
35,south hedland,-20.4089,118.5983,308.11,26,0,5.14,AU,1699931249
36,vilyuysk,63.7553,121.6247,261.07,94,100,2.24,RU,1699931249
37,kapuskasing,49.4169,-82.4331,274.2,93,100,3.09,CA,1699931250
38,lata,40.1629,-8.3327,287.08,95,78,1.07,PT,1699931250
39,mhamid,29.82,-5.72,292.31,31,44,0.35,MA,1699931250
40,howrah,22.5892,88.3103,297.15,73,20,4.12,IN,1699931250
41,bilibino,68.0546,166.4372,244.23,100,100,1.33,RU,1699931142
42,albertina,-22.2008,-46.6158,296.99,48,50,2.73,BR,1699931251
43,port elizabeth,-33.918,25.5701,289.31,84,100,3.09,ZA,1699931177
44,murghob,38.1702,73.9667,263.09,60,0,1.33,TJ,1699931251
45,betio village,1.358,172.9211,301.19,80,98,8.78,KI,1699931251
46,invercargill,-46.4,168.35,284.83,89,85,6.26,NZ,1699931228
47,miri,4.4148,114.0089,300.38,80,100,1.17,MY,1699931252
48,'alaqahdari dishu,30.4374,63.313,289.88,32,97,1.04,AF,1699931252
49,nova vicosa,-17.8919,-39.3719,297.64,82,60,7.11,BR,1699931037
50,argo,37.6333,22.7333,288.61,69,30,1.14,GR,1699931252
51,punta arenas,-53.15,-70.9167,274.88,74,65,4.81,CL,1699931246
52,haiku-pauwela,20.9219,-156.3051,298.17,67,20,7.2,US,1699931220
53,udachny,66.4167,112.4,267.29,85,100,3.91,RU,1699931253
54,hithadhoo,-0.6,73.0833,300.53,80,46,4.42,MV,1699931186
55,sarikei,2.1167,111.5167,304.93,60,100,0.48,MY,1699931253
56,saldanha,-33.0117,17.9442,288.88,70,11,2.86,ZA,1699931254
57,weno,7.4515,151.8468,301.61,73,96,2.34,FM,1699931156
58,west island,-12.1568,96.8225,301.14,74,75,5.14,CC,1699931147
59,port alfred,-33.5906,26.891,286.58,95,89,5.17,ZA,1699931161
60,villamontes,-21.25,-63.5,293.6,93,100,1.36,BO,1699931254
61,yola,9.2,12.4833,299.79,49,97,0.97,NG,1699931255
62,kavieng,-2.5744,150.7967,302.03,66,74,1.66,PG,1699931255
63,margaret river,-33.95,115.0667,292.36,67,100,4.92,AU,1699931106
64,college,64.8569,-147.8028,270.12,90,100,0.0,US,1699931237
65,nguigmi,14.2495,13.1092,299.26,27,98,5.14,NE,1699931256
66,puerto deseado,-47.7503,-65.8938,282.08,48,100,8.46,AR,1699931256
67,keflavik,64.0049,-22.5624,281.39,61,75,6.17,IS,1699931256
68,isafjordur,66.0755,-23.124,274.69,86,42,2.82,IS,1699931256
69,mugia,43.1041,-9.2179,291.99,95,100,13.11,ES,1699931256
70,yellowknife,62.456,-114.3525,269.44,93,100,5.66,CA,1699930887
71,sitka,57.0531,-135.33,278.09,81,100,6.17,US,1699931149
72,lebu,-37.6167,-73.65,282.5,89,35,2.82,CL,1699930961
73,lae,-6.7221,146.9847,301.95,68,100,2.55,PG,1699931257
74,santa elena de uairen,4.6167,-61.1333,294.43,67,60,1.61,VE,1699931257
75,st. john's,47.5649,-52.7093,272.75,82,97,2.24,CA,1699931257
76,puerto ayora,-0.7393,-90.3518,296.23,99,90,4.02,EC,1699931213
77,hirara,24.8,125.2833,295.22,59,68,6.28,JP,1699931258
78,boca do acre,-8.7522,-67.3978,297.68,90,56,1.07,BR,1699931258
79,puerto natales,-51.7236,-72.4875,274.86,77,84,5.7,CL,1699931207
80,kodinsk,58.6881,99.1844,273.95,96,100,4.73,RU,1699931258
81,sumbe,-11.2061,13.8437,298.51,90,99,1.45,AO,1699931258
82,den burg,53.0542,4.7972,286.46,80,75,13.38,NL,1699931259
83,ribeira grande,38.5167,-28.7,289.14,83,100,3.13,PT,1699931259
84,ilulissat,69.2167,-51.1,269.16,63,100,6.17,GL,1699931259
85,palikir - national government center,6.9248,158.1611,302.62,79,100,4.12,FM,1699931259
86,tolanaro,-25.0319,46.9987,295.24,77,34,2.17,MG,1699931259
87,port lincoln,-34.7333,135.8667,290.52,68,61,4.5,AU,1699931260
88,hamilton,39.1834,-84.5333,283.58,53,20,0.0,US,1699931096
89,joure,52.9657,5.803,285.93,84,48,12.52,NL,1699931260
90,sao felix do xingu,-6.6447,-51.995,299.13,53,0,0.64,BR,1699931175
91,longyearbyen,78.2186,15.6401,262.06,85,100,3.6,SJ,1699931141
92,stanley,54.868,-1.6985,280.21,92,99,3.09,GB,1699931209
93,saipan,15.1355,145.701,304.54,66,40,9.26,MP,1699931261
94,zlotow,53.3635,17.0408,281.42,91,100,6.45,PL,1699931261
95,gizo,-8.103,156.8419,300.87,75,100,3.78,SB,1699931261
96,merizo village,13.2658,144.6691,305.46,82,19,8.57,GU,1699931261
97,ushuaia,-54.8,-68.3,273.96,80,20,3.09,AR,1699931152
98,nadym,65.5333,72.5167,258.97,93,100,4.74,RU,1699931262
99,yuzhno-kurilsk,44.0306,145.8556,275.58,80,44,9.84,RU,1699931262
100,tromso,69.6496,18.957,264.16,92,57,1.03,NO,1699931218
101,cathedral city,33.7797,-116.4653,294.88,32,0,2.06,US,1699931262
102,bredasdorp,-34.5322,20.0403,287.98,79,16,7.99,ZA,1699931179
103,touros,-5.1989,-35.4608,299.56,80,84,5.04,BR,1699931235
104,labytnangi,66.6572,66.4183,254.48,100,100,0.21,RU,1699931263
105,galveston,29.3669,-94.9669,289.85,91,100,0.89,US,1699931263
106,badger,64.8,-147.5333,270.08,91,100,0.0,US,1699931240
107,kailua-kona,19.6406,-155.9956,301.21,76,75,3.6,US,1699931263
108,santa cruz,-17.8,-63.1667,300.85,83,76,2.57,BO,1699931035
109,papatowai,-46.5619,169.4708,290.57,47,64,6.51,NZ,1699931173
110,sur,22.5667,59.5289,297.7,48,29,0.08,OM,1699931265
111,codrington,-38.2667,141.9667,288.76,62,100,4.35,AU,1699931265
112,tondano,1.3038,124.9112,302.2,73,75,0.96,ID,1699931265
113,atafu village,-8.5421,-172.5159,300.1,85,100,6.87,TK,1699931216
114,olonkinbyen,70.9221,-8.7187,271.71,74,98,3.45,SJ,1699931259
115,grafton,42.207,-71.6856,275.38,91,100,0.0,US,1699931265
116,hadibu,12.65,54.0333,299.6,85,83,4.76,YE,1699931266
117,puerto baquerizo moreno,-0.9,-89.6,296.85,83,100,4.25,EC,1699931266
118,whitehorse,60.7161,-135.0538,268.58,85,100,2.06,CA,1699931138
119,colonia,50.9333,6.95,285.83,74,40,7.2,DE,1699931236
120,port mathurin,-19.6833,63.4167,298.57,77,0,2.98,MU,1699930866
121,mount isa,-20.7333,139.5,312.02,13,0,6.69,AU,1699931266
122,olyokminsk,60.3736,120.4264,266.14,88,100,2.31,RU,1699931266
123,prince albert,53.2001,-105.7677,272.91,87,100,3.51,CA,1699931267
124,petropavlovsk-kamchatsky,53.0452,158.6483,270.07,74,0,12.52,RU,1699931245
125,borovskoy,53.8,64.15,277.98,81,100,8.83,KZ,1699931267
126,ketchikan,55.3422,-131.6461,277.14,87,0,2.06,US,1699931267
127,portage la prairie,49.9728,-98.2926,275.99,67,100,5.93,CA,1699931267
128,tazovsky,67.4667,78.7,253.12,100,39,3.15,RU,1699931253
129,al matlin,37.2452,10.05,290.7,69,54,3.98,TN,1699931268
130,wailua homesteads,22.0669,-159.378,300.39,80,40,7.2,US,1699931208
131,pamandzi,-12.7967,45.2794,299.03,89,0,1.54,YT,1699931268
132,ilhabela,-23.7781,-45.3581,297.75,93,54,2.63,BR,1699931268
133,lompoc,34.6391,-120.4579,288.03,82,0,3.09,US,1699931259
134,margate,51.3813,1.3862,285.3,80,78,6.26,GB,1699931069
135,ulety,51.3572,112.4849,267.92,63,74,1.73,RU,1699931268
136,iskateley,67.6803,53.1512,265.38,96,100,4.02,RU,1699931239
137,kingston,17.997,-76.7936,301.68,79,20,1.54,JM,1699931238
138,aripuana,-9.1667,-60.6333,295.98,90,76,0.62,BR,1699931242
139,portland,45.5234,-122.6762,283.16,89,0,1.79,US,1699931046
140,albany,42.6001,-73.9662,274.11,85,73,0.46,US,1699930850
141,fisterra,42.9049,-9.2629,291.9,95,100,13.07,ES,1699931269
142,hermanus,-34.4187,19.2345,288.07,80,43,8.11,ZA,1699931269
143,remire-montjoly,4.9167,-52.2667,298.17,94,0,0.0,GF,1699931270
144,broken hill,-31.95,141.4333,299.57,23,75,4.53,AU,1699931270
145,carrizal,10.3499,-66.9863,293.32,95,100,0.77,VE,1699931270
146,kotlas,61.2611,46.6556,275.96,98,100,3.58,RU,1699931270
147,yanchep,-31.55,115.6833,302.6,51,1,4.39,AU,1699931270
148,quellon,-43.1167,-73.6167,277.43,81,95,3.53,CL,1699931271
149,labasa,-16.4167,179.3833,301.36,83,100,6.07,FJ,1699931271
150,shillong,25.5689,91.8831,287.17,82,25,0.0,IN,1699931271
151,fale old settlement,-9.3852,-171.2468,299.32,86,100,0.39,TK,1699931155
152,karayazi,39.7028,42.1456,277.59,91,79,2.59,TR,1699931271
153,ciudad lazaro cardenas,17.9583,-102.2,299.82,81,37,1.88,MX,1699931198
154,gisborne,-38.6533,178.0042,293.22,45,97,5.31,NZ,1699931271
155,hawaiian paradise park,19.5933,-154.9731,296.5,93,75,0.45,US,1699931178
156,lihue,21.9789,-159.3672,300.73,74,40,7.2,US,1699931272
157,el calafate,-50.3408,-72.2768,276.16,61,77,5.44,AR,1699931272
158,kapa'a,22.0752,-159.319,301.14,80,40,7.2,US,1699931272
159,wenchang,30.904,118.4887,283.77,41,0,1.27,CN,1699931272
160,minas de marcona,-15.2119,-75.1103,287.0,88,65,6.1,PE,1699931272
161,thompson,55.7435,-97.8558,271.24,86,75,1.54,CA,1699931198
162,san carlos,9.6612,-68.5827,297.59,86,99,1.49,VE,1699931272
163,klyuchi,52.2667,79.1667,275.97,93,93,3.47,RU,1699931272
164,kununurra,-15.7667,128.7333,308.14,46,72,5.14,AU,1699931273
165,winnemucca,40.973,-117.7357,284.5,23,100,1.96,US,1699931273
166,cabo san lucas,22.8909,-109.9124,300.79,60,0,4.63,MX,1699931025
167,celestun,20.8667,-90.4,298.85,87,85,6.08,MX,1699931273
168,ust-nera,64.5667,143.2,245.37,97,55,2.3,RU,1699931145
169,fuerte olimpo,-21.0415,-57.8738,301.56,57,54,1.14,PY,1699931273
170,piacabucu,-10.4056,-36.4344,297.32,87,91,2.85,BR,1699931273
171,holualoa,19.6228,-155.9522,299.14,76,75,3.6,US,1699931273
172,arraial do cabo,-22.9661,-42.0278,299.13,83,0,3.6,BR,1699930994
173,suoyarvi,62.0833,32.35,270.22,92,99,3.35,RU,1699931274
174,khuzdar,27.7384,66.6434,288.92,30,33,0.91,PK,1699931274
175,anadyr,64.75,177.4833,259.43,71,7,12.0,RU,1699931274
176,floro,61.5996,5.0328,278.69,75,9,3.6,NO,1699931003
177,enewetak,11.3474,162.3373,301.58,79,83,8.65,MH,1699931274
178,konarka,19.9,86.1167,298.37,61,98,5.31,IN,1699931274
179,kodiak,57.79,-152.4072,277.88,48,0,4.63,US,1699931210
180,luau,-10.7073,22.2247,291.15,90,99,1.44,AO,1699931275
181,nakhodka,42.8333,132.8947,273.7,40,0,2.86,RU,1699931275
182,sinop,41.7711,34.8709,283.56,96,100,5.79,TR,1699931275
183,inari,68.906,27.0288,254.26,98,28,1.21,FI,1699931005
184,qaqortoq,60.7167,-46.0333,266.17,95,94,1.67,GL,1699931202
185,alofi,-19.0595,-169.9187,299.09,89,100,5.14,NU,1699931275
186,vorgashor,67.5833,63.95,260.59,88,100,3.69,RU,1699931275
187,guarapari,-20.6667,-40.4975,298.65,79,98,4.26,BR,1699931089
188,sorong,-0.8833,131.25,302.45,68,87,2.3,ID,1699931276
189,kozhevnikovo,56.2589,83.9714,271.07,86,74,2.27,RU,1699931276
190,decorah,43.3033,-91.7857,280.66,33,0,2.06,US,1699931276
191,ola,59.5833,151.2833,256.56,72,64,5.07,RU,1699931276
192,aldan,58.6031,125.3894,262.54,85,100,2.05,RU,1699931276
193,tsiombe,-25.3,45.4833,294.75,83,93,3.58,MG,1699931171
194,mount pearl,47.5166,-52.7813,272.29,82,97,1.34,CA,1699931276
195,padul,37.018,-3.6693,287.62,51,99,1.97,ES,1699931277
196,alaghsas,17.0187,8.0168,296.1,15,3,4.51,NE,1699931277
197,brookings,44.3114,-96.7984,284.47,43,0,7.72,US,1699930997
198,lorengau,-2.0226,147.2712,300.94,81,98,3.03,PG,1699931277
199,cafayate,-26.073,-65.9761,291.08,75,41,2.32,AR,1699931277
200,ulsteinvik,62.3432,5.8487,276.35,75,2,4.47,NO,1699931277
201,tamanrasset,22.785,5.5228,289.1,25,0,3.09,DZ,1699931058
202,champerico,14.3,-91.9167,301.31,80,34,1.25,GT,1699931278
203,nagqu,31.5,92.0,268.92,28,100,2.1,CN,1699931278
204,kulhudhuffushi,6.6221,73.07,300.79,74,29,1.35,MV,1699931278
205,rockland,41.1668,-74.0496,281.29,71,91,2.6,US,1699931278
206,pierre,44.3683,-100.351,288.3,35,0,3.09,US,1699931052
207,nemuro,43.3236,145.575,278.37,53,13,9.49,JP,1699931278
208,san pedro,14.35,121.0167,305.01,69,100,4.92,PH,1699931278
209,kudymkar,59.0173,54.656,276.54,97,100,5.1,RU,1699931279
210,kenai,60.5544,-151.2583,272.2,96,0,3.09,US,1699931279
211,al bawiti,28.3492,28.8659,291.76,56,0,2.31,EG,1699931279
212,nabire,-3.3667,135.4833,305.24,55,60,2.57,ID,1699931279
213,labrador city,52.9463,-66.9114,261.5,97,79,0.8,CA,1699931279
214,beloyarskiy,63.7119,66.6722,264.82,92,100,3.58,RU,1699931280
215,wuwei,37.9281,102.6414,278.48,29,0,1.47,CN,1699931280
216,san jose de mayo,-34.3375,-56.7136,286.76,75,100,3.06,UY,1699931280
217,taghazout,30.5426,-9.7112,290.58,33,0,2.27,MA,1699931280
218,inhambane,-23.865,35.3833,294.78,71,100,6.84,MZ,1699931280
219,senador jose porfirio,-2.5908,-51.9542,300.45,53,100,1.67,BR,1699931280
220,claudio,-20.4433,-44.7658,296.45,45,12,1.97,BR,1699931250
221,rengasdengklok,-6.1592,107.2981,305.22,60,99,1.85,ID,1699931281
222,vikindu,-7.0067,39.2985,296.98,94,5,0.82,TZ,1699931281
223,nema,57.5067,50.5011,277.27,86,100,4.96,RU,1699931281
224,marka,1.7159,44.7717,300.01,81,95,3.19,SO,1699931281
225,afaahiti,-17.75,-149.2833,301.08,90,94,6.42,PF,1699931182
226,sorsk,54.0033,90.2467,271.4,88,100,2.78,RU,1699931281
227,mendi,-6.1761,143.6513,295.14,50,94,2.9,PG,1699931282
228,walvis bay,-22.9575,14.5053,288.59,88,75,0.49,NA,1699931282
229,buala,-8.145,159.5921,301.99,72,65,2.37,SB,1699931282
230,dudinka,69.4058,86.1778,248.78,94,13,1.78,RU,1699931199
231,yangquan,37.8575,113.5633,280.69,26,0,3.18,CN,1699931283
232,flying fish cove,-10.4217,105.6791,300.97,74,100,5.14,CX,1699931283
233,madang,-5.2246,145.7966,300.73,75,99,2.43,PG,1699931283
234,saint-philippe,-21.3585,55.7679,296.54,78,49,3.37,RE,1699931269
235,east london,-33.0153,27.9116,288.82,74,95,3.19,ZA,1699931275
236,constitucion,-35.3333,-72.4167,282.74,84,12,5.83,CL,1699931284
237,pangody,65.85,74.4859,257.26,98,100,3.75,RU,1699931284
238,severo-yeniseyskiy,60.3725,93.0408,262.09,92,100,3.95,RU,1699931284
239,settat,33.0007,-7.6204,285.05,38,1,0.96,MA,1699931285
240,apac,1.9756,32.5386,290.98,96,31,0.48,UG,1699931285
241,bhamo,24.2667,97.2333,298.86,59,10,0.48,MM,1699931285
242,paradip garh,20.3167,86.6167,298.46,61,77,5.63,IN,1699931285
243,itaparica,-12.8883,-38.6786,299.11,84,2,3.08,BR,1699931122
244,shimanovsk,52.0,127.7,268.97,53,99,0.42,RU,1699931286
245,midvagur,62.0511,-7.1939,279.61,81,100,4.63,FO,1699931286
246,sao joao da barra,-21.6403,-41.0511,296.69,92,73,2.48,BR,1699931205
247,cam ranh,11.9214,109.1591,298.13,100,75,2.57,VN,1699931286
248,st. paul,44.9444,-93.0933,283.23,48,0,3.09,US,1699931209
249,tomatlan,19.9333,-105.25,297.63,85,8,1.02,MX,1699931287
250,mukher,18.7,77.3667,296.21,62,100,2.07,IN,1699931287
251,oroqen zizhiqi,50.5667,123.7167,269.61,58,100,1.45,CN,1699931287
252,gainesville,29.6516,-82.3248,290.23,72,100,4.12,US,1699931051
253,siguiri,11.6667,-9.5,294.44,16,70,1.04,GN,1699931288
254,bamboo flat,11.7,92.7167,301.2,83,100,3.6,IN,1699931219
255,bejaia,36.7559,5.0843,291.9,56,6,2.2,DZ,1699931288
256,sonoita,31.85,-112.8333,293.56,34,68,1.45,MX,1699931289
257,bengkulu,-3.8004,102.2655,301.27,76,85,1.91,ID,1699931231
258,imbituba,-28.24,-48.6703,297.51,97,100,1.54,BR,1699931181
259,kiunga,-6.1219,141.2906,307.28,46,67,1.08,PG,1699931289
260,matoury,4.8483,-52.3317,298.13,94,0,0.0,GF,1699931290
261,maunabo,18.0072,-65.8993,301.06,87,17,5.71,PR,1699931290
262,jamestown,42.097,-79.2353,280.77,73,20,6.17,US,1699931187
263,mejit,10.2753,170.8646,300.53,83,97,6.97,MH,1699931217
264,catia la mar,10.6038,-67.0303,301.76,69,75,1.03,VE,1699931290
265,salamanca,40.8333,-6.0,284.81,87,97,2.45,ES,1699931291
266,copala,16.65,-98.9833,299.91,81,46,1.81,MX,1699931291
267,poronaysk,49.2167,143.1167,270.69,73,17,4.42,RU,1699931291
268,swakopmund,-22.6833,14.5333,289.19,87,98,0.74,NA,1699931291
269,zhezkent,50.9311,81.3615,275.95,97,100,3.33,KZ,1699931291
270,vitebsk,55.1905,30.2033,276.2,84,100,6.04,BY,1699931292
271,natal,-5.795,-35.2094,299.51,83,20,2.57,BR,1699931292
272,chita,52.0333,113.55,267.09,57,92,2.0,RU,1699931152
273,ulanhot,46.0833,122.0833,275.72,32,2,2.3,CN,1699931292
274,penzance,50.1186,-5.5371,286.53,88,82,12.59,GB,1699931159
275,kupang,-10.1667,123.5833,306.47,58,40,3.6,ID,1699931279
276,carnarvon,-24.8667,113.6333,295.44,65,98,3.78,AU,1699931293
277,miyazaki,31.9111,131.4239,289.12,48,20,3.09,JP,1699931174
278,talnakh,69.4865,88.3972,252.32,98,42,3.4,RU,1699931293
279,coruripe,-10.1256,-36.1756,297.42,88,97,2.9,BR,1699931293
280,matola,-25.9622,32.4589,292.12,88,75,6.17,MZ,1699931294
281,new norfolk,-42.7826,147.0587,290.77,31,5,2.98,AU,1699931219
282,tura,25.5198,90.2201,297.36,65,19,0.75,IN,1699931215
283,trondheim,63.4305,10.3951,273.2,85,100,0.45,NO,1699931028
284,taquaritinga,-21.4061,-48.5047,302.27,30,59,1.21,BR,1699931028
285,turpan,42.9333,89.1667,282.88,26,100,0.69,CN,1699931295
286,pisco,-13.7,-76.2167,292.6,82,0,5.14,PE,1699931150
287,tahoua,14.8888,5.2692,296.04,15,22,4.48,NE,1699931295
288,ust-tsilma,65.441,52.1498,267.93,95,100,1.34,RU,1699931295
289,es castell,39.8795,4.2854,290.53,100,0,2.57,ES,1699931295
290,rujewa,-8.7,34.3833,293.86,77,70,2.85,TZ,1699931296
291,narvik,68.4384,17.4272,258.82,54,0,2.97,NO,1699931296
292,broome,42.2506,-75.833,277.92,77,75,3.09,US,1699931296
293,luchegorsk,46.4764,134.2569,267.9,78,8,3.2,RU,1699931296
294,sisophon,13.5859,102.9737,300.89,80,82,3.64,KH,1699931297
295,bogale,16.2833,95.4,302.12,76,96,3.97,MM,1699931295
296,westport,41.1415,-73.3579,279.83,77,0,0.89,US,1699931123
297,arboletes,8.8505,-76.4269,300.1,87,100,2.06,CO,1699931297
298,aasiaat,68.7098,-52.8699,262.16,81,100,1.21,GL,1699931196
299,happy valley-goose bay,53.3168,-60.3315,268.32,68,75,4.63,CA,1699931199
300,vilyuchinsk,52.9306,158.4028,270.89,70,100,2.62,RU,1699931225
301,aleksandrovsk-sakhalinskiy,50.8975,142.1561,268.46,75,100,6.05,RU,1699931298
302,pajok,3.8651,32.4821,292.92,93,82,0.97,SS,1699931298
303,belyy yar,53.6039,91.3903,276.09,75,0,7.0,RU,1699931298
304,boguchar,49.9358,40.545,278.1,80,100,2.1,RU,1699931298
305,al burayqah,30.4062,19.5739,295.22,62,0,6.21,LY,1699931299
306,starobaltachevo,56.0013,55.9213,277.75,92,100,8.88,RU,1699931299
307,zouerate,22.7187,-12.4521,296.32,18,12,4.76,MR,1699931299
308,susuman,62.7833,148.1667,244.82,98,76,0.53,RU,1699931299
309,amahai,-3.3333,128.9167,302.91,68,56,3.18,ID,1699931299
310,goba,7.0167,39.9833,283.52,96,90,0.88,ET,1699931300
311,dakhla,23.6848,-15.958,295.01,54,83,4.46,EH,1699931300
312,villa del totoral,-30.8167,-63.7167,288.85,63,0,3.6,AR,1699931300
313,suva,-18.1416,178.4415,299.86,89,75,5.66,FJ,1699931300
314,anzio,41.4853,12.6179,291.54,88,73,3.66,IT,1699931301
315,escanaba,45.7453,-87.0646,274.32,100,0,1.54,US,1699931150
316,mossel bay,-34.1831,22.146,288.41,84,7,7.52,ZA,1699931301
317,luebo,-5.35,21.4167,293.39,98,99,1.23,CD,1699931301
318,bandar abbas,27.1865,56.2808,289.14,63,0,2.06,IR,1699931301
319,ardakan,32.31,54.0175,288.68,31,100,0.84,IR,1699931302
320,sheregesh,52.9209,87.9869,273.68,98,100,3.02,RU,1699931302
321,ceadir-lunga,46.055,28.8303,277.68,57,13,3.65,MD,1699931302
322,susangerd,31.5608,48.1831,294.31,38,19,0.57,IR,1699931303
323,sarpol-e zahab,34.4611,45.8626,291.85,37,0,2.88,IR,1699931147
324,pacific grove,36.6177,-121.9166,286.3,84,0,2.24,US,1699931150
325,nacala,-14.5428,40.6728,297.27,91,98,2.48,MZ,1699931303
326,nepalgunj,28.05,81.6167,294.78,54,100,0.59,NP,1699931303
327,gaiman,-43.2897,-65.4929,284.85,27,33,14.37,AR,1699931304
328,sisimiut,66.9395,-53.6735,263.68,73,100,3.68,GL,1699931169
329,vila velha,-20.3297,-40.2925,299.12,87,0,6.17,BR,1699931304
330,belmonte,-15.8631,-38.8828,297.69,82,5,4.55,BR,1699931304
331,mil'kovo,55.6078,37.7956,277.27,94,100,5.45,RU,1699931305
332,mazagao,-0.115,-51.2894,301.18,82,100,1.96,BR,1699931205
333,alvaraes,-3.2208,-64.8042,299.51,74,88,0.78,BR,1699931305
334,tlaltenango de sanchez roman,21.7833,-103.3167,293.71,56,73,0.97,MX,1699931305
335,nueva gerona,21.8833,-82.8,299.26,76,94,7.84,CU,1699931305
336,abepura,-2.6333,140.5833,304.6,62,20,2.06,ID,1699931306
337,cabaiguan,22.0789,-79.4992,295.83,95,18,3.27,CU,1699931306
338,kruisfontein,-34.0033,24.7314,284.38,91,47,2.51,ZA,1699931249
339,kavali,14.9167,79.9833,300.76,68,100,5.34,IN,1699931306
340,griffith,41.5284,-87.4237,283.44,49,0,0.0,US,1699931307
341,petukhovo,55.0692,67.9019,276.71,87,100,7.46,RU,1699931307
342,polyarnyy,69.1989,33.4478,264.17,97,94,1.07,RU,1699931159
343,sao jose da coroa grande,-8.8978,-35.1478,298.13,85,98,2.78,BR,1699931307
344,kati,12.7441,-8.0726,292.82,15,3,1.4,ML,1699931307
345,shangzhi,45.2167,127.9667,268.71,86,14,2.51,CN,1699931308
346,smithers,54.7804,-127.1743,273.6,84,84,1.4,CA,1699931308
347,sidi okba,34.7451,5.8983,289.82,50,0,0.65,DZ,1699931308
348,koh kong,11.6175,102.9806,303.37,61,77,2.59,KH,1699931308
349,antsiranana,-12.2787,49.2917,297.67,82,68,2.99,MG,1699931259
350,geraldton,-28.7667,114.6,298.38,65,40,4.63,AU,1699931309
351,anna regina,7.2644,-58.5077,299.66,85,7,3.58,GY,1699931309
352,kinablangan,7.6947,126.5503,302.77,68,47,2.72,PH,1699931309
353,sokur,55.2093,83.319,272.35,85,95,2.99,RU,1699931309
354,newman,37.3138,-121.0208,289.42,68,50,1.34,US,1699931309
355,yugorsk,61.3133,63.3319,269.76,96,100,4.22,RU,1699931310
356,freetown,8.484,-13.2299,299.35,88,10,1.99,SL,1699931310
357,port saint john's,-31.6229,29.5448,289.56,75,99,2.07,ZA,1699931310
358,simplicio mendes,-7.8539,-41.9103,298.96,28,0,1.29,BR,1699931052
359,atar,20.5169,-13.0499,298.66,13,3,4.8,MR,1699931311
360,basco,20.4487,121.9702,298.84,70,64,10.42,PH,1699931311
361,vila franca do campo,37.7167,-25.4333,290.38,99,83,2.6,PT,1699931311
362,taltal,-25.4,-70.4833,290.38,70,41,2.42,CL,1699931311
363,mahdia,35.5047,11.0622,289.12,62,5,3.35,TN,1699931312
364,najran,17.4924,44.1277,288.51,54,18,0.59,SA,1699931312
365,jindabyne,-36.4167,148.6333,289.2,45,100,1.03,AU,1699931312
366,gaspe,48.8334,-64.4819,272.1,86,100,2.06,CA,1699930827
367,altar,30.7,-111.8167,294.44,34,76,2.47,MX,1699931313
368,juan griego,11.0817,-63.9655,299.34,88,86,5.64,VE,1699931313
369,mancio lima,-7.6142,-72.8958,297.89,85,33,1.23,BR,1699931313
370,revda,56.801,59.9303,275.53,96,100,4.85,RU,1699931313
371,lazaro cardenas,17.9583,-102.2,299.82,81,37,1.88,MX,1699931198
372,savanna-la-mar,18.219,-78.1332,298.67,89,9,2.03,JM,1699931314
373,sovetskaya gavan',48.9723,140.2878,268.21,59,14,5.72,RU,1699931314
374,yemetsk,63.4721,41.7941,270.15,97,95,2.63,RU,1699931314
375,roma,43.2128,-75.4557,277.09,90,100,1.54,US,1699931168
376,al jawf,29.5,38.75,293.39,54,0,3.08,SA,1699931314
377,la sarre,48.8002,-79.1996,273.44,98,100,4.35,CA,1699931315
378,gargalianoi,37.0667,21.6333,287.24,76,5,3.36,GR,1699931315
379,talara,-4.5772,-81.2719,294.0,84,21,8.15,PE,1699931315
380,aizawl,23.7333,92.7167,294.04,73,20,1.03,IN,1699931316
381,ceeldheer,3.8488,47.1806,299.74,83,79,0.76,SO,1699931316
382,christchurch,-43.5333,172.6333,299.26,34,76,9.77,NZ,1699931098
383,rizhao,35.4275,119.4553,281.01,29,34,2.91,CN,1699931316
384,san rafael,-34.6177,-68.3301,288.49,34,0,2.43,AR,1699931317
385,camana,-16.6228,-72.7111,292.48,83,58,3.35,PE,1699931317
386,kayangel,8.0823,134.7173,301.68,78,70,6.66,PW,1699931317
387,masterton,-40.9597,175.6575,290.31,48,75,6.57,NZ,1699931317
388,fedorovka,53.6314,62.7078,278.16,79,100,8.62,KZ,1699931318
389,daru,-9.0763,143.2092,302.03,60,24,4.39,PG,1699931191
390,kolonia town,6.964,158.206,303.21,79,100,4.12,FM,1699931318
391,la ronge,55.1001,-105.2842,273.71,76,100,6.3,CA,1699931318
392,hasaki,35.7333,140.8333,289.37,34,0,2.57,JP,1699931232
393,rio grande,-32.035,-52.0986,292.01,94,100,4.23,BR,1699931319
394,selfoss,63.9331,-20.9971,279.29,76,75,7.79,IS,1699931319
395,colares,38.7992,-9.4469,290.0,92,93,4.02,PT,1699931319
396,yanaul,56.2719,54.9309,277.22,89,100,7.66,RU,1699931319
397,monster,52.0258,4.175,286.5,80,75,10.8,NL,1699931319
398,uusikaupunki,60.8004,21.4084,272.54,85,100,3.14,FI,1699931320
399,la passe,45.5549,-0.8967,288.7,93,100,5.05,FR,1699931179
400,beau vallon,-20.4189,57.6953,298.83,73,0,2.87,MU,1699931320
401,san luis de la loma,17.2706,-100.8939,299.93,83,21,2.57,MX,1699931320
402,magadan,59.5667,150.8,256.78,72,73,4.91,RU,1699931320
403,jalai nur,49.45,117.7,267.58,68,15,3.29,CN,1699931132
404,porto novo,6.4965,2.6036,299.01,87,5,0.97,BJ,1699931321
405,dryden,49.7833,-92.7503,271.96,97,100,1.91,CA,1699931321
406,urengoy,65.9667,78.3667,250.35,100,13,1.7,RU,1699931321
407,nuku'alofa,-21.1333,-175.2,297.34,88,75,8.75,TO,1699931321
408,petawawa,45.9001,-77.3328,273.03,92,100,1.13,CA,1699931321
409,moramanga,-18.9333,48.2,291.72,93,32,0.24,MG,1699931322
410,praia da vitoria,38.7333,-27.0667,289.68,95,98,0.45,PT,1699931322
411,yerofey pavlovich,53.9667,121.9667,267.98,49,95,0.93,RU,1699931322
412,igarka,67.4667,86.5833,255.93,84,43,6.89,RU,1699931298
413,coeur d'alene,47.6777,-116.7805,279.16,93,40,2.06,US,1699931220
414,watertown,42.3709,-71.1828,277.23,72,100,0.89,US,1699931322
415,niafunke,15.9322,-3.9906,298.13,12,0,4.54,ML,1699931323
416,yenifakili,39.2114,35.0004,284.88,75,100,2.63,TR,1699931323
417,awjilah,29.1081,21.2869,291.16,88,0,3.8,LY,1699931323
418,pasni,25.2631,63.471,297.66,59,0,2.75,PK,1699931323
419,laojunmiao,39.8333,97.7333,273.84,32,89,3.76,CN,1699931323
420,nova sintra,14.8667,-24.7167,296.97,72,100,5.4,CV,1699931323
421,santo domingo zanatepec,16.4831,-94.3475,299.0,72,93,3.08,MX,1699931324
422,lionel town,17.8101,-77.2406,302.09,84,4,3.58,JM,1699931324
423,mount gambier,-37.8333,140.7667,289.85,54,100,2.57,AU,1699931183
424,decize,46.8285,3.4619,287.1,89,100,3.67,FR,1699931324
425,fort bragg,35.139,-79.006,281.93,85,0,0.0,US,1699931159
426,kyrenia,35.3417,33.3167,289.9,78,9,2.4,CY,1699931324
427,khorixas,-20.3667,14.9667,298.58,35,75,0.29,NA,1699931324
428,san jeronimo,-11.9472,-75.2829,285.4,82,99,1.65,PE,1699931324
429,hard bargain,26.3167,-77.5667,298.58,76,97,3.82,BS,1699931325
430,tofol,5.3248,163.0078,303.03,74,75,3.09,FM,1699931325
431,taoudenni,22.6783,-3.9836,296.52,20,3,5.77,ML,1699931325
432,tirthahalli,13.7,75.2333,295.15,75,71,2.95,IN,1699931325
433,dzierzgon,53.922,19.3471,277.47,93,100,5.01,PL,1699931325
434,prince george,53.9166,-122.753,273.85,96,100,4.63,CA,1699931314
435,nankana sahib,31.4475,73.6972,292.52,44,0,0.82,PK,1699931300
436,nelson bay,-32.7167,152.15,300.18,76,51,9.39,AU,1699931326
437,tafuna,-14.3358,-170.72,306.12,70,75,3.6,AS,1699931326
438,richards bay,-28.783,32.0377,290.78,82,100,5.01,ZA,1699931325
439,tete,-16.1564,33.5867,295.37,68,19,3.8,MZ,1699931326
440,castillos,-34.1667,-53.8333,288.38,91,100,3.25,UY,1699931221
441,karratha,-20.7377,116.8463,303.29,32,2,6.65,AU,1699931326
442,nizhniye sergi,56.6614,59.3033,275.59,97,100,5.13,RU,1699931326
443,ad douiem,14.0012,32.3116,303.03,28,17,5.19,SD,1699931327
444,galesong,-5.3166,119.3661,306.16,61,67,2.07,ID,1699931327
445,as sulayyil,20.4607,45.5779,292.29,47,30,3.05,SA,1699931327
446,ribeira brava,32.65,-17.0667,293.5,79,5,1.08,PT,1699931157
447,manokwari,-0.8667,134.0833,302.3,73,81,3.73,ID,1699931327
448,solnechnyy,50.7214,136.6319,262.06,70,12,1.37,RU,1699931327
449,laguna,38.421,-121.4238,288.88,71,0,0.0,US,1699931327
450,upper grand lagoon,30.1633,-85.7408,288.74,81,100,2.68,US,1699931328
451,narok,-1.0783,35.8601,286.11,96,38,1.14,KE,1699931328
452,bereznik,62.8551,42.7072,273.51,99,100,1.06,RU,1699931328
453,mount hagen,-5.8581,144.2274,293.3,76,100,0.87,PG,1699931328
454,loango,-4.6719,11.8312,298.48,90,100,1.86,CG,1699931328
455,salalah,17.0151,54.0924,299.2,89,75,1.03,OM,1699931328
456,isabela,6.7085,121.9711,303.67,68,41,1.63,PH,1699931329
457,bel ombre,-4.6167,55.4167,301.07,78,26,5.09,SC,1699931244
458,carutapera,-1.195,-46.02,298.32,84,72,3.13,BR,1699931329
459,rodolfo sanchez taboada,31.7167,-116.5667,289.05,47,81,1.3,MX,1699931329
460,lyubinskiy,55.1542,72.6925,275.97,89,100,4.7,RU,1699931329
461,beni,0.5,29.4667,288.5,98,22,0.83,CD,1699931329
462,san patricio,28.017,-97.5169,290.84,88,100,5.51,US,1699931185
463,novyy urengoy,66.0833,76.6333,255.88,98,24,3.2,RU,1699931330
464,carlsbad,33.1581,-117.3506,292.07,73,0,2.06,US,1699931175
465,rawson,-43.3002,-65.1023,285.11,31,65,12.41,AR,1699931330
466,blairgowrie,56.5916,-3.3405,279.23,96,100,0.97,GB,1699931330
467,belev,53.8119,36.1319,277.47,78,99,7.0,RU,1699931330
468,kapit,2.0167,112.9333,305.77,59,87,0.34,MY,1699931330
469,shitanjing,39.2342,106.3439,276.08,24,4,0.77,CN,1699931330
470,rundu,-17.9333,19.7667,296.6,38,33,1.7,NA,1699931331
471,buncrana,55.1333,-7.45,282.44,91,100,3.42,IE,1699931331
472,lycksele,64.5954,18.6735,257.08,85,100,1.03,SE,1699931331
473,kardla,58.9978,22.7492,274.29,77,100,2.0,EE,1699931331
474,port augusta,-32.5,137.7667,300.84,31,65,6.53,AU,1699931331
475,keelung,25.1283,121.7419,294.82,82,100,4.72,TW,1699931331
476,puerto aysen,-45.4,-72.7,275.32,99,100,2.19,CL,1699931331
477,springbok,-29.6643,17.8865,292.35,17,0,6.26,ZA,1699931331
478,vurnary,55.4904,46.9648,278.47,79,100,5.56,RU,1699931332
479,ballina,-28.8667,153.5667,301.36,68,55,5.37,AU,1699931332
480,puerto barrios,15.7167,-88.6,298.23,100,100,0.0,GT,1699931332
481,waseca,44.0777,-93.5074,281.96,50,0,4.12,US,1699931332
482,panama city beach,30.1766,-85.8055,288.74,81,0,3.6,US,1699931128
483,zvenigovo,55.9742,48.0181,277.68,85,100,5.55,RU,1699931332
484,kerikeri,-35.2268,173.9474,289.46,70,100,4.27,NZ,1699931227
485,morehead city,34.7229,-76.726,285.36,91,0,0.0,US,1699931333
486,mount darwin,-16.7725,31.5838,291.65,66,3,3.83,ZW,1699931333
487,columbia falls,48.3725,-114.1815,279.71,69,100,4.63,US,1699931333
488,lodja,-3.4833,23.4333,294.29,100,100,0.92,CD,1699931333
489,melo,-32.3667,-54.1833,288.48,97,100,4.64,UY,1699931333
490,alice springs,-23.7,133.8833,308.9,14,5,3.6,AU,1699931209
491,mata-utu,-13.2816,-176.1745,302.27,74,77,4.75,WF,1699931306
492,ulladulla,-35.35,150.4667,293.35,68,96,3.67,AU,1699931300
493,mwanza,-2.5167,32.9,293.31,83,32,3.0,TZ,1699931334
494,ibanda,-2.7974,32.4746,290.67,97,62,1.94,TZ,1699931334
495,vadso,70.0744,29.7487,268.24,86,100,6.17,NO,1699931334
496,alibag,18.6411,72.8792,301.19,57,91,2.11,IN,1699931334
497,xinyuan,37.3,99.0,271.84,17,9,0.94,CN,1699931334
498,andratx,39.5755,2.4202,289.24,79,4,2.82,ES,1699931335
499,bemidji,47.4736,-94.8803,280.13,63,0,4.63,US,1699931060
500,marsh harbour,26.5412,-77.0636,298.47,78,100,4.31,BS,1699931127
501,egilsstadir,65.2653,-14.3948,275.29,99,99,1.17,IS,1699931335
502,moroto,2.5345,34.6666,292.93,81,59,2.68,UG,1699931335
503,chenzhou,25.8,113.0333,282.93,89,99,1.17,CN,1699931335
504,korla,41.7597,86.1469,278.87,32,46,3.16,CN,1699931324
505,rio branco,-9.9747,-67.81,298.49,100,40,1.03,BR,1699931105
506,ar ruways,24.1103,52.7306,299.47,54,100,2.1,AE,1699931336
507,moissac,44.1024,1.0945,289.53,92,97,0.75,FR,1699931336
508,howard springs,-12.497,131.047,306.41,58,34,3.01,AU,1699931287
509,taksimo,56.3444,114.8794,263.7,75,76,0.56,RU,1699931336
510,pemba,-12.974,40.5178,298.54,94,75,2.57,MZ,1699931336
511,isangel,-19.55,169.2667,300.21,69,75,6.17,VU,1699931268
512,at taj,24.2049,23.2857,289.88,37,0,4.35,LY,1699931137
513,semirom,31.4167,51.5667,278.53,48,54,1.02,IR,1699931337
514,sirte,31.2089,16.5887,295.65,65,86,5.45,LY,1699931337
515,priozersk,61.0393,30.1291,273.15,86,100,4.4,RU,1699931337
516,princeville,45.7668,-61.2985,275.15,90,69,0.41,CA,1699931263
517,beruniy,41.6911,60.7525,273.13,74,0,3.09,UZ,1699931337
518,lhuentse,27.6679,91.1839,293.2,55,30,1.18,BT,1699931338
519,mo i rana,66.3128,14.1428,265.0,82,39,2.24,NO,1699931338
520,ta`u,-14.2336,-169.5144,300.7,83,44,6.09,AS,1699931338
521,shimoda,34.6667,138.95,288.21,69,80,0.64,JP,1699931338
522,tucumcari,35.1717,-103.725,281.06,71,0,3.6,US,1699931338
523,sao miguel do tapuio,-5.5036,-41.3233,299.06,36,5,1.59,BR,1699931111
524,manta,-0.95,-80.7333,298.03,83,75,4.63,EC,1699931338
525,cururupu,-1.8283,-44.8683,297.33,87,7,2.03,BR,1699931339
526,yarmouth,41.7057,-70.2286,277.59,78,100,0.45,US,1699931339
527,alesund,62.4723,6.1549,276.35,78,20,3.6,NO,1699931127
528,sittwe,20.15,92.9,300.71,71,99,1.99,MM,1699931339
529,villa huidobro,-34.8383,-64.5869,284.13,59,0,2.64,AR,1699931339
530,darwin,-12.4611,130.8418,306.45,55,20,4.63,AU,1699931225
531,kendari,-3.945,122.4989,306.37,52,61,2.65,ID,1699931339
532,belton,38.812,-94.5319,286.19,47,0,2.57,US,1699931248
533,panaba,21.2833,-88.2667,297.47,93,100,3.45,MX,1699931340
534,san ignacio,17.1561,-89.0714,297.23,100,100,0.0,BZ,1699931340
535,salekhard,66.53,66.6019,254.23,100,100,0.75,RU,1699931337
536,raduzhny,62.0961,77.475,260.45,94,100,1.19,RU,1699931340
537,morehead,37.2711,-87.1764,283.14,70,0,0.0,US,1699931340
538,targovishte,43.2592,26.5892,281.53,60,72,1.55,BG,1699931340
539,armacao de buzios,-22.7469,-41.8817,296.69,91,56,4.98,BR,1699931341
540,caleta de carquin,-11.0925,-77.6267,292.8,87,15,4.69,PE,1699931341
541,buka,40.8108,69.1986,281.35,38,0,1.73,UZ,1699931341
542,saint-joseph,-21.3667,55.6167,297.86,76,44,2.5,RE,1699931341
543,fort st. john,56.2499,-120.8529,264.9,98,33,1.73,CA,1699931341
544,kindu,-2.95,25.95,294.26,100,100,0.88,CD,1699931341
545,cassilandia,-19.1133,-51.7342,300.69,39,52,1.7,BR,1699931342
546,pelabuhanratu,-6.9875,106.5514,303.02,73,97,1.43,ID,1699931342
547,fortuna,40.5982,-124.1573,286.47,95,100,0.0,US,1699931342
548,bikenibeu village,1.3673,173.1241,301.08,81,99,8.47,KI,1699931342
549,napili-honokowai,20.9708,-156.6705,299.37,82,15,9.19,US,1699931342
550,cacheu,12.2706,-16.1658,295.99,75,68,1.37,GW,1699931342
551,moses lake,47.1301,-119.2781,279.75,56,0,0.0,US,1699931343
552,fiambala,-27.6871,-67.6149,289.78,39,1,0.93,AR,1699931343
